{
"type": "FeatureCollection",
"name": "DataCenters",
"crs": { "type": "name", "properties": { "name": "urn:ogc:def:crs:OGC:1.3:CRS84" } },
"features": [
{ "type": "Feature", "properties": { "id": 1234, "Company": "Some company", "Address": "address", "Website": "website", "PowerSys": "power system", "NetworkHw": "network", "Cooling": "cooling", "PhysSec": "physical security", "Name": "Data center name", "Notes": "Some notes", "PhoneNum": "123-456-7891", "City": "Battle Creek", "Region": "Michigan" }, "geometry": { "type": "Point", "coordinates": [ -85.179997662243835, 42.320846926566638 ] } },
{ "type": "Feature", "properties": { "id": 1, "Company": "Company Name", "Address": "Some Address", "Website": "Website link", "PowerSys": "Power System", "NetworkHw": "Network Hardware", "Cooling": "Cooling System", "PhysSec": "Physical Security", "Name": "Data Center Name", "Notes": "Some Notes", "PhoneNum": "123-456-7891", "City": "Grand Rapids", "Region": "Michigan" }, "geometry": { "type": "Point", "coordinates": [ -85.609998076504766, 42.941196805170449 ] } },
{ "type": "Feature", "properties": { "id": 3, "Company": "Example Company", "Address": "Example Address", "Website": "Website Link", "PowerSys": "Power system used by the data center", "NetworkHw": "Networking Hardware used by the data center", "Cooling": "Cooling system employed by the data center", "PhysSec": "Physical security mechanism in place", "Name": "Name of data center", "Notes": "Notes", "PhoneNum": "123-456-7890", "City": "Detroit", "Region": "Michigan" }, "geometry": { "type": "Point", "coordinates": [ -83.081713988292762, 42.355686521672524 ] } }
]
}
